time,lat,lon,alt,yaw,pitch,roll,vx,vy,vz,v_speed,yaw_rate,pitch_rate,roll_rate,pos,rpm,torque,temp,err,steering_vel,uncorrect_yaw,beta,yaw_term,steering_spd,steering_acel
0 days 00:00:00,0.5694010141106776,-0.6553214574213116,0.5011703380954096,1.159213771133688,-0.09974686562384731,-0.6238281222687015,-2.6277691202736206,0.39480978907848646,0.43878746485872205,-2.6899624223856233,0.029493946892733235,-0.03227171614419562,0.06254627200311108,-2.4052137378258623e-05,0.0015989140459679594,2.9063851648237913,0.3444573176444595,-0.21963609764594202,-0.13061561469286403,-1.876598502863065,-0.17895723576118583,2.5552662438444125e-07,0.0015989140459679596,
0 days 00:00:00.100000,0.5694010141106776,-0.6553215158417975,0.5011703380954096,1.1592134662050444,-0.09949898036487939,-0.6242920417583492,-2.6272651239908416,0.39334090314358494,0.44507440384719066,-2.689716272317937,0.021094976182413787,-0.008100420246788115,0.06741780720994883,-2.4052137378258623e-05,0.0015989140459679594,2.9157523418224285,0.3444573176444595,-0.21963609764594202,-0.13061561469286403,-1.8765988016446429,-0.17864606978413305,2.555500089770542e-07,0.0015989140459679596,0.0
0 days 00:00:00.200000,0.5694010141106776,-0.6553215742622837,0.5011703380954096,1.1592131612764016,-0.09925109510591149,-0.6247559612479969,-2.626761127708062,0.39187201720868337,0.45136134283565915,-2.689470122250251,0.012696005472094336,0.01607087565061939,0.0722893424167866,-2.4052137378258623e-05,0.0015989140459679594,2.850182663959175,0.3444573176444595,-0.21963609764594202,-0.13061561469286403,-1.8765991004262201,-0.17802357006825065,2.5557339710573496e-07,0.0015989140459679596,0.0
0 days 00:00:00.300000,0.5694010141106776,-0.6553216911032559,0.5011703380954096,1.1592125514191152,-0.09875532458797566,-0.6256838002272922,-2.625753135142504,0.38893424533888027,0.4639352208125963,-2.688977822114879,0.04275547959323763,0.004043053768655848,0.07349562732514643,-2.4052137378258623e-05,0.0015989140459679594,2.897018268388757,0.3444573176444595,-0.21963609764594202,-0.13061561469286403,-1.876599697989375,-0.1770890656951343,5.112403761404804e-07,0.0015989140459679596,0.0
0 days 00:00:00.400000,0.5694010141106776,-0.6553216911032559,0.5011703380954096,1.1592125514191152,-0.09875532458797566,-0.6256838002272922,-2.625753135142504,0.38893424533888027,0.4639352208125963,-2.688977822114879,0.0029708814917244445,0.0024239238999299853,0.06403093035186162,-2.4052137378258623e-05,0.0015989140459679594,2.934486695819702,0.3444573176444595,-0.21963609764594202,-0.13061561469286403,-1.876599697989375,-0.17646589506084756,-0.0,0.0015989140459679596,0.0
0 days 00:00:00.500000,0.5694010141106776,-0.6553207564995434,0.5011703380954096,1.159162274706864,-0.09700975285349635,-0.6239767833434458,-2.6272091244038656,0.409498648427502,0.45555263549463826,-2.6911530470680605,0.0683944428142128,-0.006365638244581833,0.06551558870061219,-2.4052137378258623e-05,-0.004381494817101281,2.962587665688408,0.3444573176444595,-0.21963609764594202,-0.12943786328909768,-1.876648961171872,-0.18100820305873064,4.211265494974527e-05,-0.004381494817101282,-0.010988226631747923
0 days 00:00:00.600000,0.5694010141106776,-0.6553207564995434,0.5011703380954096,1.159162274706864,-0.09700975285349635,-0.6239767833434458,-2.6272091244038656,0.409498648427502,0.45555263549463826,-2.6911530470680605,-0.0032178337685109405,0.004043053768655848,0.06922723457248857,-2.4052137378258623e-05,-0.004381494817101281,2.9813217391220794,0.3444573176444595,-0.21963609764594202,-0.12943786328909768,-1.876648961171872,-0.1855505110566137,-0.0,-0.004381494817101282,0.0
0 days 00:00:00.700000,0.5694010141106776,-0.655320397636155,0.5009698425517319,1.1591545237150807,-0.09618785277965618,-0.6221494215970237,-2.6277691202736206,0.4080297624926004,0.45555263549463826,-2.6908370197748845,-0.01117475338881358,-0.000814335837521738,0.06514442411342455,-2.4052137378258623e-05,0.0015989140459679594,2.9438535922547366,0.3444573176444595,-0.21963609764594202,-0.13061561469286403,-1.8766565559111787,-0.18520358315510557,6.493129003696808e-06,0.0015989140459679596,0.010988226631747923
0 days 00:00:00.800000,0.5694010141106776,-0.655320397636155,0.5009698425517319,1.1591545237150807,-0.09618785277965618,-0.6221494215970237,-2.6277691202736206,0.4080297624926004,0.45555263549463826,-2.6908370197748845,-0.015595264288981715,-0.006596942511542673,0.06885606998530094,-2.4052137378258623e-05,0.0015989140459679594,2.948537040472254,0.3444573176444595,-0.21963609764594202,-0.13061561469286403,-1.8766565559111787,-0.1848566552535975,-0.0,0.0015989140459679596,0.0
0 days 00:00:00.900000,0.5694010141106776,-0.655320397636155,0.5009698425517319,1.1591545237150807,-0.09618785277965618,-0.6221494215970237,-2.6277691202736206,0.4080297624926004,0.45555263549463826,-2.6908370197748845,-0.020015775189149845,-0.012379549185563606,0.07256771585717733,-2.4052137378258623e-05,0.0015989140459679594,2.8782841949550857,0.3444573176444595,-0.21963609764594202,-0.13061561469286403,-1.8766565559111787,-0.1848566552535975,-0.0,0.0015989140459679596,0.0
0 days 00:00:01,0.5694010141106776,-0.655320397636155,0.5009698425517319,1.1591545237150807,-0.09618785277965618,-0.6221494215970237,-2.6277691202736206,0.4080297624926004,0.45555263549463826,-2.6908370197748845,-0.006312191398628633,0.00207696749948873,0.07210376012319278,-2.4052137378258623e-05,0.0015989140459679594,2.8314485905255036,0.3444573176444595,-0.21963609764594202,-0.13061561469286403,-1.8766565559111787,-0.1848566552535975,-0.0,0.0015989140459679596,0.0
0 days 00:00:01.100000,0.5694010141106776,-0.655320397636155,0.5009698425517319,1.1591545237150807,-0.09618785277965618,-0.6221494215970237,-2.6277691202736206,0.4080297624926004,0.45555263549463826,-2.6908370197748845,0.007391392391892577,0.016533484184541064,0.07163980438920824,-2.4052137378258623e-05,0.0015989140459679594,2.812714517091832,0.3444573176444595,-0.21963609764594202,-0.13061561469286403,-1.8766565559111787,-0.1848566552535975,-0.0,0.0015989140459679596,0.0
0 days 00:00:01.200000,0.5694010141106776,-0.6553205228181588,0.5019723202701205,1.1591490347480342,-0.1023527045121469,-0.620533555961089,-2.625529136794602,0.4006853328180927,0.45555263549463826,-2.6893633469120015,-0.005870140308611819,0.011444790311402645,0.06421651264545544,-2.4052137378258623e-05,0.0015989140459679594,2.812714517091832,0.3444573176444595,-0.21963609764594202,-0.13061561469286403,-1.8766619342259734,-0.1832947539331488,4.600714574954091e-06,0.0015989140459679596,0.0
0 days 00:00:01.300000,0.5694010141106776,-0.6553205228181588,0.5019723202701205,1.1591490347480342,-0.1023527045121469,-0.620533555961089,-2.625529136794602,0.4006853328180927,0.45555263549463826,-2.6893633469120015,0.05424880793367477,0.07620998506043711,0.07572261484827227,-2.4052137378258623e-05,0.00458911847750258,2.817398105591151,0.3444573176444595,-0.21963609764594202,-0.13120449039474721,-1.8766619342259734,-0.18173285261270009,-0.0,0.0045891184775025805,0.005494113315873962
0 days 00:00:01.400000,0.5694010141106776,-0.6553201639553737,0.5007693451407907,1.1591478327433145,-0.10039611225407738,-0.6198078707403943,-2.6297851054047374,0.409498648427502,0.4639352208125963,-2.6888828709105215,0.027725742532665982,-0.026257805203213844,0.0684849053981133,-2.4052137378258623e-05,0.0015989140459679594,2.822081694090469,0.3444573176444595,-0.21963609764594202,-0.13061561469286403,-1.8766631119994437,-0.18355224422492472,1.0076702512601686e-06,0.0015989140459679596,-0.005494113315873962
0 days 00:00:01.500000,0.5694010141106776,-0.6553201639553737,0.5007693451407907,1.1591478327433145,-0.10039611225407738,-0.6198078707403943,-2.6297851054047374,0.409498648427502,0.4639352208125963,-2.6888828709105215,-0.08455523433160457,-0.02325084973272296,0.0712686398020206,-2.4052137378258623e-05,0.0015989140459679594,2.8689170179564485,0.3444573176444595,-0.21963609764594202,-0.13061561469286403,-1.8766631119994437,-0.18537163583714933,-0.0,0.0015989140459679596,0.0
0 days 00:00:01.600000,0.5694010141106776,-0.6553201639553737,0.5007693451407907,1.1591478327433145,-0.10039611225407738,-0.6198078707403943,-2.6297851054047374,0.409498648427502,0.4639352208125963,-2.6888828709105215,0.05778521665380928,-0.009141289448111883,0.05920579071842232,-2.4052137378258623e-05,0.0015989140459679594,2.8782841949550857,0.3444573176444595,-0.21963609764594202,-0.13061561469286403,-1.8766631119994437,-0.18537163583714933,-0.0,0.0015989140459679596,0.0
0 days 00:00:01.700000,0.5694010141106776,-0.6553204977336256,0.5007693451407907,1.1591840294519444,-0.10047703341481286,-0.6225152688023798,-2.629001111187081,0.40362310468789575,0.45555263549463826,-2.689561503344909,0.021094976182413783,0.013642180847530598,0.07386679191233407,-2.4052137378258623e-05,0.0015989140459679594,2.882967643172603,0.3444573176444595,-0.21963609764594202,-0.13061561469286403,-1.8766276449813517,-0.1840892092876307,-3.0336938482162783e-05,0.0015989140459679596,0.0
0 days 00:00:01.800000,0.5694010141106776,-0.6553203266440815,0.5013708317718238,1.1591866932102601,-0.09836414681516421,-0.6205480760220324,-2.626201131838308,0.39995088985064187,0.4660308671420858,-2.6883876698600364,0.033251381157876146,0.01624435385084002,0.0741451653527248,-2.4052137378258623e-05,0.0015989140459679594,2.9251192382574627,0.3444573176444595,-0.21963609764594202,-0.13061561469286403,-1.8766250349218203,-0.18208293346059204,-2.2335057385179413e-06,0.0015989140459679596,0.0
0 days 00:00:01.900000,0.5694010141106776,-0.655320155554537,0.5019723202701205,1.1591893569685758,-0.09625126021551557,-0.6185808832416849,-2.6234011524895346,0.39627867501338804,0.4765090987895334,-2.6872138363751636,0.04540778613333851,0.018846526854149438,0.07442353879311552,-2.4052137378258623e-05,0.0015989140459679594,2.8782841949550857,0.3444573176444595,-0.21963609764594202,-0.13061561469286403,-1.8766224248622885,-0.18063342283454822,-2.2344813827948066e-06,0.0015989140459679596,0.0
0 days 00:00:02,0.5694010141106776,-0.655320155554537,0.5019723202701205,1.1591893569685758,-0.09625126021551557,-0.6185808832416849,-2.6234011524895346,0.39627867501338804,0.4765090987895334,-2.6872138363751636,0.03568266215296862,0.013526528714050178,0.06959839915967621,-2.4052137378258623e-05,0.0015989140459679594,2.88765109139012,0.3444573176444595,-0.21963609764594202,-0.13061561469286403,-1.8766224248622885,-0.1799077614860245,-0.0,0.0015989140459679596,0.0
0 days 00:00:02.100000,0.5694010141106776,-0.6553200887635509,0.5014710814109262,1.1592215456425192,-0.09864001701123618,-0.6205466411294464,-2.626145132251332,0.39774756094828956,0.46812651347157536,-2.6883597811057958,-0.016037315378998523,0.021622178057679485,0.0722893424167866,-2.4052137378258623e-05,-0.001391290385566661,2.901701716606274,0.3444573176444595,-0.21963609764594202,-0.13002673899098086,-1.876590885080791,-0.18014327442243616,-2.6989811110359913e-05,-0.0013912903855666612,-0.005494113315873962
0 days 00:00:02.200000,0.5694010141106776,-0.6553200553680577,0.5012204610476974,1.1592376399794913,-0.09983439540909646,-0.621529520073327,-2.627517122132231,0.39848200391574035,0.4639352208125963,-2.688932753471112,0.002307804856699226,0.0204656567228753,0.07112945308182522,-2.4052137378258623e-05,0.0015989140459679594,2.9063851648237913,0.3444573176444595,-0.21963609764594202,-0.13061561469286403,-1.8765751151900423,-0.1804963488896909,-1.3492029986770715e-05,0.0015989140459679596,0.005494113315873962
0 days 00:00:02.300000,0.5694010141106776,-0.6553200219725647,0.5009698425517319,1.1592537343164624,-0.10102877380695677,-0.6225123990172078,-2.62888911201313,0.3992164468831911,0.45974392815361725,-2.6895057258364288,0.020652925092396975,0.019309135388071115,0.06996956374686386,-2.4052137378258623e-05,0.0015989140459679594,2.9157523418224285,0.3444573176444595,-0.21963609764594202,-0.13061561469286403,-1.8765593452992941,-0.18073134226780388,-1.3489155642560693e-05,0.0015989140459679596,0.0
0 days 00:00:02.400000,0.5694010141106776,-0.6553200219725647,0.5009698425517319,1.1592537343164624,-0.10102877380695677,-0.6225123990172078,-2.62888911201313,0.3992164468831911,0.45974392815361725,-2.6895057258364288,0.01711651637226247,0.020234352455914463,0.06829932310451949,-2.4052137378258623e-05,0.0015989140459679594,2.9063851648237913,0.3444573176444595,-0.21963609764594202,-0.13061561469286403,-1.8765593452992941,-0.1808487741150737,-0.0,0.0015989140459679596,0.0
0 days 00:00:02.500000,0.5694010141106776,-0.6553197298445782,0.5013708336390873,1.1593104579333313,-0.102270866183081,-0.6191425873177601,-2.6273211235778167,0.4109675343624035,0.46812651347157536,-2.6912943787701176,-0.017805519739065776,0.006471748571744639,0.07395958305913097,-2.4052137378258623e-05,0.0015989140459679594,2.897018268388757,0.3444573176444595,-0.21963609764594202,-0.13061561469286403,-1.8765037651755236,-0.1835232182913604,-4.751020009558784e-05,0.0015989140459679596,0.0
0 days 00:00:02.600000,0.5694010141106776,-0.6553197298445782,0.5013708336390873,1.1593104579333313,-0.102270866183081,-0.6191425873177601,-2.6273211235778167,0.4109675343624035,0.46812651347157536,-2.6912943787701176,0.033914457792901365,0.010288268976598456,0.06718582934295657,-2.4052137378258623e-05,-0.001391290385566661,2.850182663959175,0.3444573176444595,-0.21963609764594202,-0.13002673899098086,-1.8765037651755236,-0.18619766246764707,-0.0,-0.0013912903855666612,-0.005494113315873962
0 days 00:00:02.700000,0.5694010141106776,-0.6553196922787298,0.5022730654529005,1.1593149598686612,-0.10266838412899121,-0.6194610554154127,-2.6272651239908416,0.4087642054600512,0.4639352208125963,-2.69111583121375,0.04032419859814516,0.009478704042235525,0.06973758587987158,-2.4052137378258623e-05,0.0015989140459679594,2.8689170179564485,0.3444573176444595,-0.21963609764594202,-0.13061561469286403,-1.8764993539948434,-0.18570838248464527,-3.7709520474183714e-06,0.0015989140459679596,0.005494113315873962
0 days 00:00:02.800000,0.5694010141106776,-0.6553196547128812,0.5031752972667136,1.1593194618039915,-0.10306590207490142,-0.6197795235130653,-2.6272091244038656,0.40656087655769885,0.45974392815361725,-2.690937283657383,0.04673393940338895,0.008669139107872596,0.0722893424167866,-2.4052137378258623e-05,0.0015989140459679594,2.8782841949550857,0.3444573176444595,-0.21963609764594202,-0.13061561469286403,-1.8764949428141628,-0.18472967746749058,-3.7712022559715737e-06,0.0015989140459679596,0.0
0 days 00:00:02.900000,0.5694010141106776,-0.6553195628984361,0.5030750494948748,1.1593324628584414,-0.10141274651662224,-0.6206733862134773,-2.6272651239908416,0.4043575476553466,0.46812651347157536,-2.6907728119673258,0.024852410447556695,0.012716963779687248,0.06723222491635501,-2.4052137378258623e-05,0.0015989140459679594,2.850182663959175,0.3444573176444595,-0.21963609764594202,-0.13061561469286403,-1.8764822038483606,-0.183746837211572,-1.0891449827020011e-05,0.0015989140459679596,0.0
0 days 00:00:03,0.5694010141106776,-0.6553194710839908,0.5029747998557724,1.159345463912891,-0.0997595909583431,-0.6215672489138894,-2.6273211235778167,0.40215421875299423,0.4765090987895334,-2.690608340277268,0.0029708814917244445,0.0167647884515019,0.062175107415923435,-2.4052137378258623e-05,0.0015989140459679594,2.7892965745952396,0.3444573176444595,-0.21963609764594202,-0.13061561469286403,-1.8764694648825588,-0.18275990287822555,-1.0892115600368984e-05,0.0015989140459679596,0.0
0 days 00:00:03.100000,0.5694010141106776,-0.6553194710839908,0.5029747998557724,1.159345463912891,-0.0997595909583431,-0.6215672489138894,-2.6273211235778167,0.40215421875299423,0.4765090987895334,-2.690608340277268,0.06043752319391016,0.0038117495016950094,0.0788775138393672,-2.4052137378258623e-05,0.0015989140459679594,2.7846129860959214,0.3444573176444595,-0.21963609764594202,-0.13061561469286403,-1.8764694648825588,-0.1822663837666447,-0.0,0.0015989140459679596,0.0
0 days 00:00:03.200000,0.5694010141106776,-0.6553194710839908,0.5029747998557724,1.159345463912891,-0.0997595909583431,-0.6215672489138894,-2.6273211235778167,0.40215421875299423,0.4765090987895334,-2.690608340277268,0.020652925092396975,0.026248263396896235,0.07182538668280206,-2.4052137378258623e-05,0.0015989140459679594,2.793980163094558,0.3444573176444595,-0.21963609764594202,-0.13061561469286403,-1.8764694648825588,-0.1822663837666447,-0.0,0.0015989140459679596,0.0
0 days 00:00:03.300000,0.5694010141106776,-0.6553196796791552,0.5033757928103914,1.1593648017169533,-0.10109438565919983,-0.6229541564065099,-2.6277691202736206,0.41537419216710814,0.44717005017668016,-2.690897375617195,0.04717599049340576,0.016533484184541064,0.06941281686608239,-2.4052137378258623e-05,0.0015989140459679594,2.7565120162272154,0.3444573176444595,-0.21963609764594202,-0.13061561469286403,-1.8764505169098702,-0.1851983126616159,-1.6199222448566713e-05,0.0015989140459679596,0.0
0 days 00:00:03.400000,0.5694010141106776,-0.6553197819058473,0.503726660945459,1.1593676503123314,-0.10215621138943481,-0.622693450705246,-2.6277971200671084,0.4109675343624035,0.45555263549463826,-2.690705622029046,0.05535393565871681,0.008033052373730294,0.07196457340299742,-2.4052137378258623e-05,0.0015989140459679594,2.7471448392285787,0.3444573176444595,-0.21963609764594202,-0.13061561469286403,-1.876447725739412,-0.1871473574848236,-2.3864301541439427e-06,0.0015989140459679596,0.0
0 days 00:00:03.500000,0.5694010141106776,-0.655319884132539,0.5040775272132634,1.1593704989077087,-0.10321803711966979,-0.6224327450039819,-2.6278251198605957,0.40656087655769885,0.4639352208125963,-2.6905138684408962,0.06353188082402786,-0.0004673794370804798,0.07451632993991245,-2.4052137378258623e-05,0.0015989140459679594,2.74714497951038,0.3444573176444595,-0.21963609764594202,-0.13061561469286403,-1.8764449345689547,-0.1851811064339479,-2.3866002351157613e-06,0.0015989140459679596,0.0
0 days 00:00:03.600000,0.5694010141106776,-0.6553199863592308,0.5044283953483311,1.1593733475030867,-0.10427986284990477,-0.622172039302718,-2.6278531196540835,0.40215421875299423,0.47231780613055435,-2.690322114852747,0.036345738787993846,0.010346095043338666,0.07140782652221596,-2.4052137378258623e-05,0.0015989140459679594,2.7284104852313047,0.3444573176444595,-0.21963609764594202,-0.13061561469286403,-1.8764421433984964,-0.18321389449909906,-2.386770341449018e-06,0.0015989140459679596,0.0
0 days 00:00:03.700000,0.5694010141106776,-0.6553200885859229,0.5047792634833987,1.1593761960984639,-0.10534168858013977,-0.6219113336014541,-2.6278811194475717,0.39774756094828956,0.48070039144851245,-2.690130361264598,0.009159596751959828,0.021159569523757814,0.06829932310451949,-2.4052137378258623e-05,-0.004381494817101281,2.7565120162272154,0.3444573176444595,-0.21963609764594202,-0.12943786328909768,-1.8764393522280394,-0.18124573155680102,-2.386940470730367e-06,-0.004381494817101282,-0.010988226631747923
0 days 00:00:03.800000,0.5694010141106776,-0.655320355629684,0.5035762883540691,1.1593827375656018,-0.10396157615344832,-0.623557702055363,-2.627097125229915,0.4183119640369113,0.47231780613055435,-2.690897375617195,-0.0018916804984604985,0.0058934879043425455,0.06904165227889476,-2.4052137378258623e-05,0.0015989140459679594,2.7471448392285787,0.3444573176444595,-0.21963609764594202,-0.13061561469286403,-1.876432942630534,-0.18487397913018597,-5.479768073286837e-06,0.0015989140459679596,0.010988226631747923
0 days 00:00:03.900000,0.5694010141106776,-0.655320355629684,0.5035762883540691,1.1593827375656018,-0.10396157615344832,-0.623557702055363,-2.627097125229915,0.4183119640369113,0.47231780613055435,-2.690897375617195,0.0031919070367328523,0.0021926196329691483,0.06727862048975347,-2.4052137378258623e-05,0.0015989140459679594,2.7658790529440513,0.3444573176444595,-0.21963609764594202,-0.13061561469286403,-1.876432942630534,-0.18948654469013232,-0.0,0.0015989140459679596,0.0
0 days 00:00:04,0.5694010141106776,-0.655320355629684,0.5035762883540691,1.1593827375656018,-0.10396157615344832,-0.623557702055363,-2.627097125229915,0.4183119640369113,0.47231780613055435,-2.690897375617195,0.008275494571926204,-0.0015082486384042494,0.06551558870061219,-2.4052137378258623e-05,0.0015989140459679594,2.7190435887962705,0.3444573176444595,-0.21963609764594202,-0.13061561469286403,-1.876432942630534,-0.18948654469013232,-0.0,0.0015989140459679596,0.0
0 days 00:00:04.100000,0.5694010141106776,-0.6553203222641386,0.5031752972667136,1.1593801753253257,-0.10357261327223403,-0.6235638980789752,-2.6273211235778167,0.39334090314358494,0.4765090987895334,-2.689922301784418,-0.012058855568847204,0.0167647884515019,0.07869193154577338,-2.4052137378258623e-05,0.0015989140459679594,2.700309515362599,0.3444573176444595,-0.21963609764594202,-0.13061561469286403,-1.8764354532185314,-0.1839088515626826,2.147159302637069e-06,0.0015989140459679596,0.0
0 days 00:00:04.200000,0.5694010141106776,-0.6553203222641386,0.5031752972667136,1.1593801753253257,-0.10357261327223403,-0.6235638980789752,-2.6273211235778167,0.39334090314358494,0.4765090987895334,-2.689922301784418,0.06574213627411192,0.004505662302577522,0.07108305750842678,-2.4052137378258623e-05,0.0015989140459679594,2.6815754419289277,0.3444573176444595,-0.21963609764594202,-0.13061561469286403,-1.8764354532185314,-0.17833115843523287,-0.0,0.0015989140459679596,0.0
0 days 00:00:04.300000,0.5694010141106776,-0.6553201720593302,0.5038770316695856,1.159362827342359,-0.10161163493111022,-0.622999311495646,-2.627377123164792,0.3970131179808388,0.47022215980106485,-2.6902045918887882,-0.01426911101893127,0.015376962849736879,0.06755699393014421,-2.4052137378258623e-05,0.0015989140459679594,2.719043448514469,0.3444573176444595,-0.21963609764594202,-0.13061561469286403,-1.8764524514829877,-0.17914934502296645,1.4536097466073403e-05,0.0015989140459679596,0.0
0 days 00:00:04.400000,0.5694010141106776,-0.6553198612083667,0.5040775272132634,1.1593528322724638,-0.10117335287765442,-0.6224374811731475,-2.6273211235778167,0.4006853328180927,0.4733656292952992,-2.690473131615627,0.008275494571926206,0.008437834840911757,0.06996956374686386,-2.4052137378258623e-05,0.0015989140459679594,2.7284104852313047,0.3444573176444595,-0.21963609764594202,-0.13061561469286403,-1.8764622450619683,-0.18078915821892652,8.374161361117647e-06,0.0015989140459679596,0.0
0 days 00:00:04.500000,0.5694010141106776,-0.6553195503574032,0.504278022756941,1.1593428372025683,-0.1007350708241986,-0.6218756508506488,-2.6272651239908416,0.4043575476553466,0.4765090987895334,-2.690741671342466,0.030820100162783675,0.0014987068320866355,0.07238213356358351,-2.4052137378258623e-05,-0.004381494817101281,2.7284104852313047,0.3444573176444595,-0.21963609764594202,-0.12943786328909768,-1.8764720386409492,-0.18243210340847973,8.373325608149014e-06,-0.004381494817101282,-0.010988226631747923
0 days 00:00:04.600000,0.5694010141106776,-0.6553193146088442,0.5041276520328145,1.1593415161241563,-0.10127727794130469,-0.6215961138198148,-2.6271811246103782,0.40619365507397354,0.48279603777800195,-2.69086906601712,0.011369852202043895,0.004563488369317731,0.06602594000799519,-2.4052137378258623e-05,-0.004381494817101281,2.690942338363962,0.3444573176444595,-0.21963609764594202,-0.12943786328909768,-1.8764733330877017,-0.1836658960492688,1.106675201846326e-06,-0.004381494817101282,0.0
0 days 00:00:04.700000,0.5694010141106776,-0.6553190788602848,0.5039772794414245,1.1593401950457434,-0.10181948505841078,-0.6213165767889809,-2.627097125229915,0.4080297624926004,0.4890829767664705,-2.6909964606917742,-0.008080395758695885,0.0076282699065488265,0.05966974645240687,-2.4052137378258623e-05,0.0015989140459679594,2.690942338363962,0.3444573176444595,-0.21963609764594202,-0.13061561469286403,-1.8764746275344553,-0.1844907828732855,1.1066228113732635e-06,0.0015989140459679596,0.010988226631747923
0 days 00:00:04.800000,0.5694010141106776,-0.655318720003492,0.5047792634833987,1.1593660718662786,-0.10133571151776946,-0.6221928160249264,-2.6272091244038656,0.39774756094828956,0.48070039144851245,-2.6902596182648524,0.0003185749516235648,0.009363051908755107,0.07627936172905372,-2.4052137378258623e-05,0.0015989140459679594,2.719043448514469,0.3444573176444595,-0.21963609764594202,-0.13061561469286403,-1.8764492723655235,-0.18260501311732225,-2.168207637912896e-05,0.0015989140459679596,0.0
0 days 00:00:04.900000,0.5694010141106776,-0.655318720003492,0.5047792634833987,1.1593660718662786,-0.10133571151776946,-0.6221928160249264,-2.6272091244038656,0.39774756094828956,0.48070039144851245,-2.6902596182648524,0.011369852202043895,0.008669139107872596,0.07182538668280206,-2.4052137378258623e-05,0.0015989140459679594,2.6815754419289277,0.3444573176444595,-0.21963609764594202,-0.13061561469286403,-1.8764492723655235,-0.18030683059680477,-0.0,0.0015989140459679596,0.0
0 days 00:00:05,0.5694010141106776,-0.655318720003492,0.5047792634833987,1.1593660718662786,-0.10133571151776946,-0.6221928160249264,-2.6272091244038656,0.39774756094828956,0.48070039144851245,-2.6902596182648524,0.022421129452464227,0.007975226306990083,0.06737141163655039,-2.4052137378258623e-05,0.0015989140459679594,2.60663886763064,0.3444573176444595,-0.21963609764594202,-0.13061561469286403,-1.8764492723655235,-0.18030683059680477,-0.0,0.0015989140459679596,0.0
0 days 00:00:05.100000,0.5694010141106776,-0.6553186240471066,0.505380750114432,1.1593646934655633,-0.10267545369366489,-0.6214670484916753,-2.6273211235778167,0.40215421875299423,0.4660308671420858,-2.6905984509611174,0.03126215125280049,0.0032334888342929165,0.07238213356358351,-2.4052137378258623e-05,0.0015989140459679594,2.5879047941969686,0.3444573176444595,-0.21963609764594202,-0.13061561469286403,-1.8764506229790172,-0.18128660718172473,1.1548105714260892e-06,0.0015989140459679596,0.0
0 days 00:00:05.200000,0.5694010141106776,-0.6553185280907216,0.5059822386127285,1.1593633150648488,-0.10401519586956032,-0.6207412809584244,-2.627433122751768,0.40656087655769885,0.45136134283565915,-2.690937283657383,0.04010317305313675,-0.0015082486384042494,0.07739285549061664,-2.4052137378258623e-05,0.0015989140459679594,2.597271830913804,0.3444573176444595,-0.21963609764594202,-0.13061561469286403,-1.8764519735925103,-0.18324558734128768,1.15466516122665e-06,0.0015989140459679596,0.0
0 days 00:00:05.300000,0.5694010141106776,-0.6553185280907216,0.5059822386127285,1.1593633150648488,-0.10401519586956032,-0.6207412809584244,-2.627433122751768,0.40656087655769885,0.45136134283565915,-2.690937283657383,0.10110622347545697,-0.01723693879174119,0.07071189292123914,-2.4052137378258623e-05,0.0015989140459679594,2.5879047941969686,0.3444573176444595,-0.21963609764594202,-0.13061561469286403,-1.8764519735925103,-0.18422479091593064,-0.0,0.0015989140459679596,0.0
0 days 00:00:05.400000,0.5694010141106776,-0.6553173847913114,0.5057817430690508,1.1593721773208674,-0.10817247626799903,-0.6214316388006943,-2.6273211235778167,0.40215421875299423,0.46812651347157536,-2.690608340277268,0.04717599049340576,-0.0003517273036000633,0.07535145026108463,-2.4052137378258623e-05,0.0015989140459679594,2.597271690632003,0.3444573176444595,-0.21963609764594202,-0.13061561469286403,-1.8764432899909773,-0.18324558734128768,-7.424683698403163e-06,0.0015989140459679596,0.0
0 days 00:00:05.500000,0.5694010141106776,-0.6553173847913114,0.5057817430690508,1.1593721773208674,-0.10817247626799903,-0.6214316388006943,-2.6273211235778167,0.40215421875299423,0.46812651347157536,-2.690608340277268,-0.006754242488645445,0.018846526854149438,0.07934146957335175,-2.4052137378258623e-05,0.0015989140459679594,2.60663886763064,0.3444573176444595,-0.21963609764594202,-0.13061561469286403,-1.8764432899909773,-0.1822663837666447,-0.0,0.0015989140459679596,0.0
0 days 00:00:05.600000,0.5694010141106776,-0.6553167422124794,0.5061827341564062,1.1594237440030768,-0.10962993180099707,-0.6218443724938773,-2.626873126882013,0.40362310468789575,0.4765090987895334,-2.6905842028646223,0.0012026771316571924,0.013295224447089343,0.06607233558139364,-2.4052137378258623e-05,0.0015989140459679594,2.5879047941969686,0.3444573176444595,-0.21963609764594202,-0.13061561469286403,-1.8763927628430654,-0.18260948594436155,-4.320228829977e-05,0.0015989140459679596,0.0
0 days 00:00:05.700000,0.5694010141106776,-0.6553166643212022,0.5061159029309348,1.159430201002266,-0.10971588383051468,-0.6216993357240231,-2.627022459113948,0.4046023619778301,0.4779061963425264,-2.6907065884176458,-0.003070483405172002,0.013295224447089343,0.06746420278334729,-2.4052137378258623e-05,0.00458911847750258,2.5832210654158487,0.3444573176444595,-0.21963609764594202,-0.13120449039474721,-1.8763864360107172,-0.18316595796233778,-5.409393048488217e-06,0.0045891184775025805,0.005494113315873962
0 days 00:00:05.800000,0.5694010141106776,-0.6553165864299251,0.5060490698381999,1.1594366580014552,-0.10980183586003228,-0.6215542989541692,-2.6271717913458823,0.4055816192677645,0.47930329389551946,-2.6908289739706697,-0.007343643942001196,0.013295224447089343,0.06885606998530094,-2.4052137378258623e-05,0.0015989140459679594,2.5879047941969686,0.3444573176444595,-0.21963609764594202,-0.13061561469286403,-1.8763801091783687,-0.1835926500203723,-5.409147016015816e-06,0.0015989140459679596,-0.005494113315873962
0 days 00:00:05.900000,0.5694010141106776,-0.6553165085386479,0.5059822386127285,1.1594431150006446,-0.10988778788954989,-0.6214092621843151,-2.6273211235778167,0.40656087655769885,0.48070039144851245,-2.690951359523693,-0.01161680447883039,0.013295224447089343,0.07024793718725458,-2.4052137378258623e-05,0.0015989140459679594,2.616005764065674,0.3444573176444595,-0.21963609764594202,-0.13061561469286403,-1.8763737823460203,-0.18401924679546824,-5.408901005736735e-06,0.0015989140459679596,0.0
0 days 00:00:06,0.5694010141106776,-0.6553165085386479,0.5059822386127285,1.1594431150006446,-0.10988778788954989,-0.6214092621843151,-2.6273211235778167,0.40656087655769885,0.48070039144851245,-2.690951359523693,0.03303035561286774,0.041976953550233176,0.0666290824621751,-2.4052137378258623e-05,0.0015989140459679594,2.625372941064311,0.3444573176444595,-0.21963609764594202,-0.13061561469286403,-1.8763737823460203,-0.18423252135278903,-0.0,0.0015989140459679596,0.0
0 days 00:00:06.100000,0.5694010141106776,-0.6553161872504848,0.5062829819282451,1.1594417921953724,-0.11060677056224816,-0.6217760494067094,-2.627433122751768,0.40729531952514963,0.4744134524600439,-2.6909739101077337,0.02927292134772483,0.026248263396896235,0.06880967441190249,-2.4052137378258623e-05,0.0015989140459679594,2.6675246764309724,0.3444573176444595,-0.21963609764594202,-0.13061561469286403,-1.8763750784848212,-0.18439244597080187,1.1080786288769739e-06,0.0015989140459679596,0.0
0 days 00:00:06.200000,0.5694010141106776,-0.655315865962322,0.5065837271110251,1.1594404693901004,-0.11132575323494641,-0.6221428366291036,-2.627545121925719,0.4080297624926004,0.46812651347157536,-2.6909964606917742,0.025515487082581917,0.010519573243559292,0.07099026636162986,-2.4052137378258623e-05,0.0015989140459679594,2.6815754419289277,0.3444573176444595,-0.21963609764594202,-0.13061561469286403,-1.876376374623622,-0.18471226836053203,1.1080693429747373e-06,0.0015989140459679596,0.0
0 days 00:00:06.300000,0.5694010141106776,-0.6553157449551569,0.5067340978351517,1.159444959430268,-0.11198558796441527,-0.6226192311427786,-2.627601121512694,0.4050919906227973,0.4733656292952992,-2.6907649470366453,0.004960111396800105,0.005662183637381708,0.07015514604045768,-2.4052137378258623e-05,-0.004381494817101281,2.6628413684952563,0.3444573176444595,-0.21963609764594202,-0.12943786328909768,-1.8763719750983092,-0.18421508010576296,-3.7614787582352195e-06,-0.004381494817101282,-0.010988226631747923
0 days 00:00:06.400000,0.5694010141106776,-0.6553156239479915,0.5068844704265416,1.159449449470435,-0.11264542269388414,-0.6230956256564535,-2.62765712109967,0.40215421875299423,0.4786047451190229,-2.6905334333815163,-0.01559526428898171,0.0008047940312041241,0.06932002571928549,-2.4052137378258623e-05,0.0015989140459679594,2.700309515362599,0.3444573176444595,-0.21963609764594202,-0.13061561469286403,-1.876367575572997,-0.18290071412145179,-3.7618024236122415e-06,0.0015989140459679596,0.010988226631747923
0 days 00:00:06.500000,0.5694010141106776,-0.6553155029408261,0.5070348430179317,1.1594539395106025,-0.113305257423353,-0.6235720201701284,-2.627713120686645,0.3992164468831911,0.4838438609427467,-2.690301919726387,-0.01029065120877995,0.01005696470963762,0.07409876977932635,-2.4052137378258623e-05,0.0015989140459679594,2.6581576397141364,0.3444573176444595,-0.21963609764594202,-0.13061561469286403,-1.8763631760476842,-0.1815859617667988,-3.762126145625502e-06,0.0015989140459679596,0.0
0 days 00:00:06.600000,0.5694010141106776,-0.6553153819336609,0.5071852137420582,1.1594584295507706,-0.11396509215282184,-0.6240484146838032,-2.6277691202736206,0.39627867501338804,0.4890829767664705,-2.690070406071258,-0.004986038128578192,0.019309135388071115,0.0788775138393672,-2.4052137378258623e-05,0.0015989140459679594,2.672208264930291,0.3444573176444595,-0.21963609764594202,-0.13061561469286403,-1.8763587765223708,-0.1802708260291957,-3.7624499235453703e-06,0.0015989140459679596,0.0
0 days 00:00:06.700000,0.5694010141106776,-0.6553153819336609,0.5071852137420582,1.1594584295507706,-0.11396509215282184,-0.6240484146838032,-2.6277691202736206,0.39627867501338804,0.4890829767664705,-2.690070406071258,0.0515965013935739,0.010519573243559292,0.058277879250453225,-2.4052137378258623e-05,0.0015989140459679594,2.60663886763064,0.3444573176444595,-0.21963609764594202,-0.13061561469286403,-1.8763587765223708,-0.17961316268842084,-0.0,0.0015989140459679596,0.0
0 days 00:00:06.800000,0.5694010141106776,-0.6553153068077788,0.5077867022403547,1.1594726106224507,-0.1145095070572186,-0.6249061352951453,-2.627097125229915,0.4080297624926004,0.44717005017668016,-2.6909964606917742,0.04275547959323763,0.12270214271956542,0.06607233558139364,-2.4052137378258623e-05,0.0015989140459679594,2.60663886763064,0.3444573176444595,-0.21963609764594202,-0.13061561469286403,-1.8763448813273413,-0.18225817916313028,-1.1879005256459033e-05,0.0015989140459679596,0.0
0 days 00:00:06.900000,0.5694010141106776,-0.6553155446263507,0.5077867022403547,1.1594809250287441,-0.11606949170087218,-0.6250973861631676,-2.6264811297731847,0.3992164468831911,0.4660308671420858,-2.6900677999999525,0.032146253432834115,0.058862165038374305,0.06959839915967621,-2.4052137378258623e-05,0.0015989140459679594,2.616005764065674,0.3444573176444595,-0.21963609764594202,-0.13061561469286403,-1.8763367345314144,-0.18295763553147726,-6.967101954017111e-06,0.0015989140459679596,0.0
0 days 00:00:07,0.5694010141106776,-0.6553157824449225,0.5077867022403547,1.159489239435038,-0.11762947634452574,-0.62528863703119,-2.6258651343164545,0.3904031312737818,0.48489168410749145,-2.689139139308131,0.021537027272430603,-0.00497781264281681,0.07312446273795879,-2.4052137378258623e-05,0.0015989140459679594,2.611322315848157,0.3444573176444595,-0.21963609764594202,-0.13061561469286403,-1.876328587735487,-0.17906368150044058,-6.969507957125347e-06,0.0015989140459679596,0.0
0 days 00:00:07.100000,0.5694010141106776,-0.6553157824449225,0.5077867022403547,1.159489239435038,-0.11762947634452574,-0.62528863703119,-2.6258651343164545,0.3904031312737818,0.48489168410749145,-2.689139139308131,0.03612471324298543,-0.00671259464502309,0.07460912108670935,-2.4052137378258623e-05,0.0015989140459679594,2.60663886763064,0.3444573176444595,-0.21963609764594202,-0.13061561469286403,-1.876328587735487,-0.17711528757576636,-0.0,0.0015989140459679596,0.0
0 days 00:00:07.200000,0.5694010141106776,-0.6553157824449225,0.5077867022403547,1.159489239435038,-0.11762947634452574,-0.62528863703119,-2.6258651343164545,0.3904031312737818,0.48489168410749145,-2.689139139308131,-0.01647936646901534,0.0026552281668908227,0.06811374081092567,-2.4052137378258623e-05,0.0015989140459679594,2.5879047941969686,0.3444573176444595,-0.21963609764594202,-0.13061561469286403,-1.876328587735487,-0.17711528757576636,-0.0,0.0015989140459679596,0.0
0 days 00:00:07.300000,0.5694010141106776,-0.6553156238992466,0.5084884366432267,1.1594679797273868,-0.11662412076690741,-0.6242216275915574,-2.626817127295038,0.3955442320459372,0.48279603777800195,-2.6897625860117973,-0.006754242488645445,-0.0018552050388455051,0.0666290824621751,-2.4052137378258623e-05,0.0015989140459679594,2.597271690632003,0.3444573176444595,-0.21963609764594202,-0.13061561469286403,-1.8763494188680523,-0.1782322562549826,1.7816709079805065e-05,0.0015989140459679596,0.0
0 days 00:00:07.400000,0.5694010141106776,-0.6553154653535708,0.5091901729133622,1.159446720019736,-0.11561876518928908,-0.6231546181519249,-2.6277691202736206,0.4006853328180927,0.48070039144851245,-2.6903860327154634,0.0029708814917244445,-0.006365638244581833,0.06514442411342455,-2.4052137378258623e-05,0.0015989140459679594,2.597271690632003,0.3444573176444595,-0.21963609764594202,-0.13061561469286403,-1.876370250000617,-0.18046475911858886,1.781258038840515e-05,0.0015989140459679596,0.0
0 days 00:00:07.500000,0.5694010141106776,-0.6553154653535708,0.5091901729133622,1.159446720019736,-0.11561876518928908,-0.6231546181519249,-2.6277691202736206,0.4006853328180927,0.48070039144851245,-2.6903860327154634,0.036566764333002245,0.017690005519345253,0.08240357741764978,-2.4052137378258623e-05,0.0015989140459679594,2.5691704401996946,0.3444573176444595,-0.21963609764594202,-0.13061561469286403,-1.876370250000617,-0.18158029330297892,-0.0,0.0015989140459679596,0.0
0 days 00:00:07.600000,0.5694010141106776,-0.6553152650500668,0.5073857092857359,1.1594508697425576,-0.1104976759446955,-0.6251871639378785,-2.626985126055964,0.4109675343624035,0.47231780613055435,-2.6910471444856,-0.0783665190713692,0.010519573243559292,0.07479470338030315,-2.4052137378258623e-05,0.0015989140459679594,2.5691704401996946,0.3444573176444595,-0.21963609764594202,-0.13061561469286403,-1.8763661839321828,-0.1839006952035011,-3.4760173206221317e-06,0.0015989140459679596,0.0
0 days 00:00:07.700000,0.5694010141106776,-0.6553152650500668,0.5073857092857359,1.1594508697425576,-0.1104976759446955,-0.6251871639378785,-2.626985126055964,0.4109675343624035,0.47231780613055435,-2.6910471444856,0.023305231632497855,0.00982566044267678,0.06867048769170712,-2.4052137378258623e-05,0.0015989140459679594,2.60663886763064,0.3444573176444595,-0.21963609764594202,-0.13061561469286403,-1.8763661839321828,-0.1862210971040233,-0.0,0.0015989140459679596,0.0
0 days 00:00:07.800000,0.5694010141106776,-0.6553152274872986,0.5072854615138971,1.1594657829960227,-0.10922186383387324,-0.6255880727174037,-2.627433122751768,0.4117019773298543,0.47022215980106485,-2.6909420821302423,-0.04344448296004094,0.01260131164620683,0.06495884181983073,-2.4052137378258623e-05,0.0015989140459679594,2.6066387273488387,0.3444573176444595,-0.21963609764594202,-0.13061561469286403,-1.8763515713154426,-0.18636918099509517,-1.2492581677962275e-05,0.0015989140459679596,0.0
0 days 00:00:07.900000,0.5694010141106776,-0.6553152087059148,0.5072353385616093,1.1594732396227556,-0.10858395777846211,-0.6257885271071661,-2.62765712109967,0.4120691988135797,0.4691743366363201,-2.6908895509525634,0.0023078048566992212,-0.0032430306406105278,0.06681466475576892,-2.4052137378258623e-05,0.0015989140459679594,2.60663886763064,0.3444573176444595,-0.21963609764594202,-0.13061561469286403,-1.8763442650070725,-0.18659128360401264,-6.246412778633684e-06,0.0015989140459679596,0.0
0 days 00:00:08,0.5694010141106776,-0.6553151899245306,0.5071852137420582,1.1594806962494881,-0.10794605172305097,-0.6259889814969288,-2.6278811194475717,0.4124364202973051,0.46812651347157536,-2.6908370197748845,0.04806009267343939,-0.019087372927427886,0.06867048769170712,-2.4052137378258623e-05,0.0015989140459679594,2.616005764065674,0.3444573176444595,-0.21963609764594202,-0.13061561469286403,-1.8763369586987024,-0.18673930555805016,-6.246534722303262e-06,0.0015989140459679596,0.0
0 days 00:00:08.100000,0.5694010141106776,-0.6553151899245306,0.5071852137420582,1.1594806962494881,-0.10794605172305097,-0.6259889814969288,-2.6278811194475717,0.4124364202973051,0.46812651347157536,-2.6908370197748845,0.018000618552296094,0.006818704972185895,0.06700024704936275,-2.4052137378258623e-05,0.0015989140459679594,2.597271690632003,0.3444573176444595,-0.21963609764594202,-0.13061561469286403,-1.8763369586987024,-0.18681330879424207,-0.0,0.0015989140459679596,0.0
0 days 00:00:08.200000,0.5694010141106776,-0.6553152066085179,0.5081876933277102,1.1594717024654468,-0.1064486945081352,-0.6229831089094358,-2.626761127708062,0.41978084997181286,0.48489168410749145,-2.690600214401511,0.01623241419222884,0.007281313506107569,0.07739285549061664,-2.4052137378258623e-05,0.0015989140459679594,2.597271690632003,0.3444573176444595,-0.21963609764594202,-0.13061561469286403,-1.8763457711767808,-0.18848904119421017,7.5348989341254195e-06,0.0015989140459679596,0.0
0 days 00:00:08.300000,0.5694010141106776,-0.6553152066085179,0.5081876933277102,1.1594717024654468,-0.1064486945081352,-0.6229831089094358,-2.626761127708062,0.41978084997181286,0.48489168410749145,-2.690600214401511,-0.022668081729250725,0.01167609457836348,0.07201096897639588,-2.4052137378258623e-05,0.0015989140459679594,2.6347398374993456,0.3444573176444595,-0.21963609764594202,-0.13061561469286403,-1.8763457711767808,-0.1901647735941783,-0.0,0.0015989140459679596,0.0
0 days 00:00:08.400000,0.5694010141106776,-0.6553158074217454,0.5073857092857359,1.1595507315351479,-0.10161604561486462,-0.6246928911594312,-2.628553114491277,0.4006853328180927,0.45974392815361725,-2.6898535297975337,0.04275547959323763,0.0026552281668908227,0.07108305750842678,-2.4052137378258623e-05,0.0015989140459679594,2.578537336634729,0.3444573176444595,-0.21963609764594202,-0.13061561469286403,-1.8762683352564729,-0.1858458655857176,-6.622811381580677e-05,0.0015989140459679596,0.0
0 days 00:00:08.500000,0.5694010141106776,-0.6553158074217454,0.5073857092857359,1.1595507315351479,-0.10161604561486462,-0.6246928911594312,-2.628553114491277,0.4006853328180927,0.45974392815361725,-2.6898535297975337,0.06397393191404467,-0.013998679054289467,0.06904165227889475,-2.4052137378258623e-05,0.0015989140459679594,2.616005764065674,0.3444573176444595,-0.21963609764594202,-0.13061561469286403,-1.8762683352564729,-0.18152695757725695,-0.0,0.0015989140459679596,0.0
0 days 00:00:08.600000,0.5694010141106776,-0.6553158074217454,0.5073857092857359,1.1595507315351479,-0.10161604561486462,-0.6246928911594312,-2.628553114491277,0.4006853328180927,0.45974392815361725,-2.6898535297975337,-0.04123422750995688,0.02555435059601372,0.07405237420592788,-2.4052137378258623e-05,0.0015989140459679594,2.578537336634729,0.3444573176444595,-0.21963609764594202,-0.13061561469286403,-1.8762683352564729,-0.18152695757725695,-0.0,0.0015989140459679596,0.0
0 days 00:00:08.700000,0.5694010141106776,-0.6553156071184046,0.5077867022403547,1.15956748365912,-0.10236390114672408,-0.623167424192438,-2.626985126055964,0.4109675343624035,0.4639352208125963,-2.6910471444856,0.0317042023428173,0.009016095508313851,0.07785681122460118,-2.4052137378258623e-05,0.0015989140459679594,2.597271830913804,0.3444573176444595,-0.21963609764594202,-0.13061561469286403,-1.8762519208390716,-0.18387402734064012,-1.4032424715629738e-05,0.0015989140459679596,0.0
0 days 00:00:08.800000,0.5694010141106776,-0.6553157281249138,0.5079370748317448,1.1595630374057615,-0.1007400007530403,-0.6229232938829694,-2.6273211235778167,0.416108635134559,0.4639352208125963,-2.6906855704522745,0.05137547584856549,0.007917400240249874,0.07066549734784068,-2.4052137378258623e-05,0.0015989140459679594,2.616005764065674,0.3444573176444595,-0.21963609764594202,-0.13061561469286403,-1.876256277460275,-0.18735507586904424,3.7249067532984977e-06,0.0015989140459679596,0.0
0 days 00:00:08.900000,0.5694010141106776,-0.6553158491314229,0.5080874455558714,1.1595585911524025,-0.09911610035935652,-0.6226791635735008,-2.62765712109967,0.4212497359067144,0.4639352208125963,-2.690323996418949,0.07104674935431367,0.006818704972185895,0.06347418347108016,-2.4052137378258623e-05,0.0015989140459679594,2.60663886763064,0.3444573176444595,-0.21963609764594202,-0.13061561469286403,-1.8762606340814787,-0.18962206520671857,3.7254073736929232e-06,0.0015989140459679596,0.0
0 days 00:00:09,0.5694010141106776,-0.6553160911444413,0.5083881888713879,1.1595496986456848,-0.09586829957198895,-0.6221909029545638,-2.6283291161433753,0.43153193745102525,0.4639352208125963,-2.6896008483522973,0.002086779311690818,0.007050009239146733,0.08500172952796324,-2.4052137378258623e-05,0.0015989140459679594,2.578537336634729,0.3444573176444595,-0.21963609764594202,-0.13061561469286403,-1.876269347323886,-0.19301816506562264,7.4528180347082365e-06,0.0015989140459679596,0.0
0 days 00:00:09.100000,0.5694010141106776,-0.6553165834629422,0.5073857092857359,1.1596218038708057,-0.1015659393614544,-0.626540072826135,-2.6264251301862096,0.3859964734690772,0.4639352208125963,-2.6891564866647144,0.09314930385515434,-0.013536070520367791,0.06013370218639141,-2.4052137378258623e-05,0.0015989140459679594,2.5738540286990133,0.3444573176444595,-0.21963609764594202,-0.13061561469286403,-1.876198695670167,-0.18519448679081002,-6.044144111638821e-05,0.0015989140459679596,0.0
0 days 00:00:09.200000,0.5694010141106776,-0.6553165834629422,0.5073857092857359,1.1596218038708057,-0.1015659393614544,-0.626540072826135,-2.6264251301862096,0.3859964734690772,0.4639352208125963,-2.6891564866647144,0.05380675684365797,-0.014229983321250306,0.0712686398020206,-2.4052137378258623e-05,0.0015989140459679594,2.5879047941969686,0.3444573176444595,-0.21963609764594202,-0.13061561469286403,-1.876198695670167,-0.17510771922974674,-0.0,0.0015989140459679596,0.0
0 days 00:00:09.300000,0.5694010141106776,-0.6553165834629422,0.5073857092857359,1.1596218038708057,-0.1015659393614544,-0.626540072826135,-2.6264251301862096,0.3859964734690772,0.4639352208125963,-2.6891564866647144,0.014464209832161588,-0.014923896122132818,0.08240357741764978,-2.4052137378258623e-05,0.0015989140459679594,2.597271690632003,0.3444573176444595,-0.21963609764594202,-0.13061561469286403,-1.876198695670167,-0.17510771922974674,-0.0,0.0015989140459679596,0.0
0 days 00:00:09.400000,0.5694010141106776,-0.6553165834629422,0.5073857092857359,1.1596218038708057,-0.1015659393614544,-0.626540072826135,-2.6264251301862096,0.3859964734690772,0.4639352208125963,-2.6891564866647144,0.08872879295498622,-0.013767374787328628,0.06792815851733185,-2.4052137378258623e-05,0.0015989140459679594,2.60663886763064,0.3444573176444595,-0.21963609764594202,-0.13061561469286403,-1.876198695670167,-0.17510771922974674,-0.0,0.0015989140459679596,0.0
0 days 00:00:09.500000,0.5694010141106776,-0.6553160577769596,0.5075862066966771,1.1595613072492905,-0.09737728678004236,-0.6256301734778278,-2.6302331021005414,0.3874653594039787,0.4765090987895334,-2.687856817208074,-0.0032178337685109405,0.010519573243559292,0.07368120961874025,-2.4052137378258623e-05,0.007579322909037201,2.625372941064311,0.3444573176444595,-0.21963609764594202,-0.13179336609663037,-1.8762579727384696,-0.17531073877869302,5.073517243910186e-05,0.007579322909037202,0.010988226631747925
0 days 00:00:09.600000,0.5694010141106776,-0.6553160577769596,0.5075862066966771,1.1595613072492905,-0.09737728678004236,-0.6256301734778278,-2.6302331021005414,0.3874653594039787,0.4765090987895334,-2.687856817208074,-0.020015775189149845,-0.03828562708517739,0.06421651264545544,-2.4052137378258623e-05,0.0015989140459679594,2.60663886763064,0.3444573176444595,-0.21963609764594202,-0.13061561469286403,-1.8762579727384696,-0.1755137583276393,-0.0,0.0015989140459679596,-0.010988226631747925
0 days 00:00:09.700000,0.5694010141106776,-0.6553160577769596,0.5075862066966771,1.1595613072492905,-0.09737728678004236,-0.6256301734778278,-2.6302331021005414,0.3874653594039787,0.4765090987895334,-2.687856817208074,0.06574213627411192,0.010519573243559292,0.07442353879311552,-2.4052137378258623e-05,-0.004381494817101281,2.6347398374993456,0.3444573176444595,-0.21963609764594202,-0.12943786328909768,-1.8762579727384696,-0.1755137583276393,-0.0,-0.004381494817101282,-0.010988226631747923
0 days 00:00:09.800000,0.5694010141106776,-0.655315398521692,0.5087891818260067,1.1595456378136586,-0.09975578167283926,-0.6226672681981045,-2.625753135142504,0.41684307810200977,0.4639352208125963,-2.689771622455069,0.09933801911538973,0.02509174206209205,0.061618360535141976,-2.4052137378258623e-05,0.0015989140459679594,2.625372941064311,0.3444573176444595,-0.21963609764594202,-0.13061561469286403,-1.8762733262934774,-0.1822204708188918,1.3131734582833538e-05,0.0015989140459679596,0.010988226631747923
0 days 00:00:09.900000,0.5694010141106776,-0.6553159159160269,0.5081876951949736,1.1595660817263411,-0.10451723142466206,-0.624051101991845,-2.6255851363815776,0.40215421875299423,0.4639352208125963,-2.6892157134873917,-0.00012347613839324597,-0.003358682774090948,0.06820653195772257,-2.4052137378258623e-05,0.0015989140459679594,2.690942338363962,0.3444573176444595,-0.21963609764594202,-0.13061561469286403,-1.8762532945102455,-0.18565611572692656,-1.7136515814971702e-05,0.0015989140459679596,0.0
0 days 00:00:10,0.5694010141106776,-0.6553161746131941,0.5078869500121936,1.159576303682683,-0.10689795630057346,-0.6247430188887151,-2.625501137001114,0.39480978907848646,0.4639352208125963,-2.688937759003553,-0.005207063673586599,0.002308271766449567,0.07122224422862214,-2.4052137378258623e-05,0.0015989140459679594,2.700309515362599,0.3444573176444595,-0.21963609764594202,-0.13061561469286403,-1.876243278618629,-0.18074729378651497,-8.56914360587478e-06,0.0015989140459679596,0.0
0 days 00:00:10.100000,0.5694010141106776,-0.6553164333103618,0.5075862066966771,1.1595865256390243,-0.10927868117648486,-0.6254349357855853,-2.625417137620651,0.3874653594039787,0.4639352208125963,-2.6886598045197148,-0.010290651208779953,0.007975226306990083,0.07423795649952171,-2.4052137378258623e-05,0.0015989140459679594,2.60663886763064,0.3444573176444595,-0.21963609764594202,-0.13061561469286403,-1.8762332627270129,-0.17747033458198774,-8.570029486553598e-06,0.0015989140459679596,0.0
0 days 00:00:10.200000,0.5694010141106776,-0.6553163790632659,0.5076864544685159,1.1595723984991269,-0.1070857191346737,-0.6231974937760204,-2.626033133077381,0.39995088985064187,0.45764828182412776,-2.6896912422728954,0.018000618552296094,0.004852618703018778,0.0645876772326431,-2.4052137378258623e-05,0.0015989140459679594,2.5879047941969686,0.3444573176444595,-0.21963609764594202,-0.13061561469286403,-1.8762471050774723,-0.1786008201829344,1.1839570990550053e-05,0.0015989140459679596,0.0
0 days 00:00:10.300000,0.5694010141106776,-0.6553163248161701,0.5077867022403547,1.1595582713592292,-0.10489275709286254,-0.6209600517664554,-2.6266491285341114,0.4124364202973051,0.45136134283565915,-2.6907226800260764,0.08961289513501984,0.012138703112285156,0.06996956374686386,-2.4052137378258623e-05,0.0015989140459679594,2.597271690632003,0.3444573176444595,-0.21963609764594202,-0.13061561469286403,-1.876260947427932,-0.1841350158145076,1.1835032512976824e-05,0.0015989140459679596,0.0
0 days 00:00:10.400000,0.5694010141106776,-0.6553163248161701,0.5077867022403547,1.1595582713592292,-0.10489275709286254,-0.6209600517664554,-2.6266491285341114,0.4124364202973051,0.45136134283565915,-2.6907226800260764,0.04054522414315356,0.0186152225871886,0.06746420278334729,-2.4052137378258623e-05,0.0015989140459679594,2.597271690632003,0.3444573176444595,-0.21963609764594202,-0.13061561469286403,-1.876260947427932,-0.1868995209978007,-0.0,0.0015989140459679596,0.0
0 days 00:00:10.500000,0.5694010141106776,-0.6553163248161701,0.5077867022403547,1.1595582713592292,-0.10489275709286254,-0.6209600517664554,-2.6266491285341114,0.4124364202973051,0.45136134283565915,-2.6907226800260764,-0.0085224468487127,0.02509174206209205,0.06495884181983073,-2.4052137378258623e-05,0.0015989140459679594,2.611322315848157,0.3444573176444595,-0.21963609764594202,-0.13061561469286403,-1.876260947427932,-0.1868995209978007,-0.0,0.0015989140459679596,0.0
0 days 00:00:10.600000,0.5694010141106776,-0.6553165835645685,0.5089896773696845,1.1595659138153047,-0.1076280813976441,-0.6216733464271583,-2.6339290748409216,0.3904031312737818,0.45974392815361725,-2.684448066203815,-0.006312191398628633,-0.01261085345252444,0.06922723457248857,-2.4052137378258623e-05,0.0015989140459679594,2.5879047941969686,0.3444573176444595,-0.21963609764594202,-0.13061561469286403,-1.8762534590363582,-0.18174018215995183,-6.417444096196603e-06,0.0015989140459679596,0.0
0 days 00:00:10.700000,0.5694010141106776,-0.6553161495872228,0.5075862066966771,1.159610914720274,-0.11112943090868532,-0.6211858150238754,-2.6220571624021227,0.4241875077765175,0.4639352208125963,-2.6859574578250958,0.09580161039525523,0.013063920180128506,0.06829932310451949,-2.4052137378258623e-05,0.0015989140459679594,2.6347398374993456,0.3444573176444595,-0.21963609764594202,-0.13061561469286403,-1.8762093653059857,-0.18452345388521216,-3.7766458989487575e-05,0.0015989140459679596,0.0
0 days 00:00:10.800000,0.5694010141106776,-0.6553161495872228,0.5075862066966771,1.159610914720274,-0.11112943090868532,-0.6211858150238754,-2.6220571624021227,0.4241875077765175,0.4639352208125963,-2.6859574578250958,0.09270725276513753,0.011213486044441806,0.06486605067303382,-2.4052137378258623e-05,0.0015989140459679594,2.597271690632003,0.3444573176444595,-0.21963609764594202,-0.13061561469286403,-1.8762093653059857,-0.19246606444832132,-0.0,0.0015989140459679596,0.0
0 days 00:00:10.900000,0.5694010141106776,-0.6553161495872228,0.5075862066966771,1.159610914720274,-0.11112943090868532,-0.6211858150238754,-2.6220571624021227,0.4241875077765175,0.4639352208125963,-2.6859574578250958,0.08961289513501984,0.009363051908755107,0.06143277824154816,-2.4052137378258623e-05,0.0015989140459679594,2.6160059043474755,0.3444573176444595,-0.21963609764594202,-0.13061561469286403,-1.8762093653059857,-0.19246606444832132,-0.0,0.0015989140459679596,0.0
0 days 00:00:11,0.5694010141106776,-0.6553161495872228,0.5075862066966771,1.159610914720274,-0.11112943090868532,-0.6211858150238754,-2.6220571624021227,0.4241875077765175,0.4639352208125963,-2.6859574578250958,0.007391392391892577,-0.06095344524733945,0.05493739796576447,-2.4052137378258623e-05,0.0015989140459679594,2.616005764065674,0.3444573176444595,-0.21963609764594202,-0.13061561469286403,-1.8762093653059857,-0.19246606444832132,-0.0,0.0015989140459679596,0.0
0 days 00:00:11.100000,0.5694010141106776,-0.6553163081324835,0.5073857092857359,1.159594115517517,-0.11151126179822245,-0.6212864550767613,-2.6272091244038656,0.3904031312737818,0.48070039144851245,-2.689689815187262,-0.07748241689133556,-0.02833954360586138,0.0599481198927976,-2.4052137378258623e-05,0.0015989140459679594,2.6347398374993456,0.3444573176444595,-0.21963609764594202,-0.13061561469286403,-1.8762258258531093,-0.18474602753238956,1.4078961530800168e-05,0.0015989140459679596,0.0
0 days 00:00:11.200000,0.5694010141106776,-0.6553163081324835,0.5073857092857359,1.159594115517517,-0.11151126179822245,-0.6212864550767613,-2.6272091244038656,0.3904031312737818,0.48070039144851245,-2.689689815187262,-0.035045512249721494,-0.023713458266644637,0.06922723457248857,-2.4052137378258623e-05,0.0015989140459679594,2.597271690632003,0.3444573176444595,-0.21963609764594202,-0.13061561469286403,-1.8762258258531093,-0.17702599061645774,-0.0,0.0015989140459679596,0.0
0 days 00:00:11.300000,0.5694010141106776,-0.6553163081324835,0.5073857092857359,1.159594115517517,-0.11151126179822245,-0.6212864550767613,-2.6272091244038656,0.3904031312737818,0.48070039144851245,-2.689689815187262,0.010043698931993455,0.030874348736112982,0.06718582934295657,-2.4052137378258623e-05,0.0015989140459679594,2.616005764065674,0.3444573176444595,-0.21963609764594202,1.076756236878205,-1.8762258258531093,-0.17702599061645774,-0.0,0.0015989140459679596,0.0
0 days 00:00:11.400000,0.5694010141106776,-0.6553159076228338,0.5081876933277102,1.159526822625617,-0.11431554664525057,-0.6210181655863184,-2.629897104578688,0.4432830249302377,0.43459617219974306,-2.687847627279879,-0.013827059928914457,-0.011223027850759418,0.07776402007780428,-2.4052137378258623e-05,0.0015989140459679594,2.616005764065674,0.3444573176444595,-0.21963609764594202,1.2826860698267506,-1.8762917621855772,-0.18870524207518502,5.6435021692948427e-05,0.0015989140459679596,0.0
0 days 00:00:11.500000,0.5694010141106776,-0.6553159076228338,0.5081876933277102,1.159526822625617,-0.11431554664525057,-0.6210181655863184,-2.629897104578688,0.4432830249302377,0.43459617219974306,-2.687847627279879,-0.06068447547069666,0.0854621557388706,0.10151855365781319,-2.4052137378258623e-05,0.0015989140459679594,2.60663886763064,0.3444573176444595,-0.21963609764594202,1.2826860698267506,-1.8762917621855772,-0.20038449353391227,-0.0,0.0015989140459679596,0.0
0 days 00:00:11.600000,0.5694010141106776,-0.6553172344296709,0.5069847181983804,1.159595218915886,-0.11555106320528741,-0.6226262793922933,-2.627545121925719,0.40215421875299423,0.48070039144851245,-2.690576312582889,-0.023552183909284354,0.05481434036655965,0.0599481198927976,-2.4052137378258623e-05,0.0015989140459679594,2.419297011039516,0.3444573176444595,-0.21963609764594202,1.2826860698267506,-1.876224744698181,-0.19131778846399386,-5.73022112261907e-05,0.0015989140459679596,0.0
0 days 00:00:11.700000,0.5694010141106776,-0.6553172344296709,0.5069847181983804,1.159595218915886,-0.11555106320528741,-0.6226262793922933,-2.627545121925719,0.40215421875299423,0.48070039144851245,-2.690576312582889,-0.04653884059015864,-0.0065391164448024616,0.07433074764631861,0.0015596687456263685,1.4548382677717935,-1.9270288574197225,0.3444573176444595,-0.21963609764594202,2.6959877543463655,-1.876224744698181,-0.18225108339407542,-0.0,1.4548382677717937,2.670139071514745
0 days 00:00:11.800000,0.5694010141106776,-0.6553172344296709,0.5069847181983804,1.159595218915886,-0.11555106320528741,-0.6226262793922933,-2.627545121925719,0.40215421875299423,0.48070039144851245,-2.690576312582889,-0.06952549727103292,-0.06789257325616457,0.08871337539983964,0.00471529176636722,1.7329272799045132,0.6301843707931255,0.3444573176444595,-0.21963609764594202,2.6959877543463655,-1.876224744698181,-0.18225108339407542,-0.0,1.7329272799045135,0.5109525383762785
0 days 00:00:11.900000,0.5694010141106776,-0.6553174263416387,0.5067842226547028,1.159612339766495,-0.10783291483592493,-0.6184271404009143,-2.629001111187081,0.4359385952557299,0.5016568547434076,-2.6889010520551038,-0.09781676703210897,-0.07968909087116728,0.07386679191233407,0.007752727108998076,1.7837607552406016,0.864361481109328,0.3444573176444595,-0.21963609764594202,2.5005045763492273,-1.8762079689873143,-0.18972071176751024,-1.435273497672982e-05,1.7837607552406018,0.09339992636985707
0 days 00:00:12,0.5694010141106776,-0.6553174263416387,0.5067842226547028,1.159612339766495,-0.10783291483592493,-0.6184271404009143,-2.629001111187081,0.4359385952557299,0.5016568547434076,-2.6889010520551038,-0.206561335176245,0.052385645563470855,0.028584712275442094,0.009761925301350833,1.789741164103671,3.00942327011799,0.3444573176444595,-0.21963609764594202,1.098921518297088,-1.8762079689873143,-0.19719034014094508,-0.0,1.7897411641036711,0.010988226631747986
0 days 00:00:12.100000,0.5694010141106776,-0.6553174263416387,0.5067842226547028,1.159612339766495,-0.10783291483592493,-0.6184271404009143,-2.629001111187081,0.4359385952557299,0.5016568547434076,-2.6889010520551038,0.023305231632497855,-0.18955861767756502,0.05438065108498301,0.014749463982862603,3.5479813698460276,2.278790758877975,0.3444573176444595,-0.21963609764594202,0.516935662125948,-1.8762079689873143,-0.19719034014094508,-0.0,3.547981369846028,3.230538629733889
